[
    {
        "unit": 81,
        "comment": "A car digital twin labelled Car-Mercedes-Benz-GLE-C5HS5A",
        "label": "Car-Mercedes-Benz-GLE-C5HS5A",
        "manufacturerName": "Mercedes-Benz",
        "colour": "Grey",
        "model": "GLE",
        "identifier": "C5HS5A",
        "owner": "Paul Clark",
        "location": {
            "latitude": 51.513434,
            "longitude": -0.157231
        }
    },
    {
        "unit": 92,
        "comment": "A car digital twin labelled Car-Subaru-Ascent-0QCV7C",
        "label": "Car-Subaru-Ascent-0QCV7C",
        "manufacturerName": "Subaru",
        "colour": "Red",
        "model": "Ascent",
        "identifier": "0QCV7C",
        "owner": "Thomas Young",
        "location": {
            "latitude": 51.475479,
            "longitude": -0.104007
        }
    },
    {
        "unit": 58,
        "comment": "A car digital twin labelled Car-Ford-Mustang-V3VPL1",
        "label": "Car-Ford-Mustang-V3VPL1",
        "manufacturerName": "Ford",
        "colour": "Red",
        "model": "Mustang",
        "identifier": "V3VPL1",
        "owner": "Samantha Carter",
        "location": {
            "latitude": 51.507644,
            "longitude": -0.127845
        }
    },
    {
        "unit": 96,
        "comment": "A car digital twin labelled Car-Toyota-Camry-IZMVP8",
        "label": "Car-Toyota-Camry-IZMVP8",
        "manufacturerName": "Toyota",
        "colour": "Black",
        "model": "Camry",
        "identifier": "IZMVP8",
        "owner": "Jessica Wright",
        "location": {
            "latitude": 51.542414,
            "longitude": -0.056834
        }
    },
    {
        "unit": 76,
        "comment": "A car digital twin labelled Car-BMW-7 Series-GD3VLX",
        "label": "Car-BMW-7 Series-GD3VLX",
        "manufacturerName": "BMW",
        "colour": "Green",
        "model": "7 Series",
        "identifier": "GD3VLX",
        "owner": "Samantha Carter",
        "location": {
            "latitude": 51.404762,
            "longitude": -0.236021
        }
    },
    {
        "unit": 71,
        "comment": "A car digital twin labelled Car-Mercedes-Benz-S-Class-8GP0U4",
        "label": "Car-Mercedes-Benz-S-Class-8GP0U4",
        "manufacturerName": "Mercedes-Benz",
        "colour": "Blue",
        "model": "S-Class",
        "identifier": "8GP0U4",
        "owner": "Daniel Taylor",
        "location": {
            "latitude": 51.614159,
            "longitude": -0.095033
        }
    },
    {
        "unit": 32,
        "comment": "A car digital twin labelled Car-Nissan-Sentra-6MX73A",
        "label": "Car-Nissan-Sentra-6MX73A",
        "manufacturerName": "Nissan",
        "colour": "Blue",
        "model": "Sentra",
        "identifier": "6MX73A",
        "owner": "Daniel Taylor",
        "location": {
            "latitude": 51.670062,
            "longitude": -0.10263
        }
    },
    {
        "unit": 48,
        "comment": "A car digital twin labelled Car-Hyundai-Elantra-25JYOI",
        "label": "Car-Hyundai-Elantra-25JYOI",
        "manufacturerName": "Hyundai",
        "colour": "Black",
        "model": "Elantra",
        "identifier": "25JYOI",
        "owner": "Michelle Perez",
        "location": {
            "latitude": 51.519935,
            "longitude": -0.08723
        }
    },
    {
        "unit": 67,
        "comment": "A car digital twin labelled Car-Fiat-500-6FHISM",
        "label": "Car-Fiat-500-6FHISM",
        "manufacturerName": "Fiat",
        "colour": "Red",
        "model": "500",
        "identifier": "6FHISM",
        "owner": "Gary Phillips",
        "location": {
            "latitude": 51.606042,
            "longitude": -0.128885
        }
    },
    {
        "unit": 40,
        "comment": "A car digital twin labelled Car-Nissan-Rogue-RGIMO7",
        "label": "Car-Nissan-Rogue-RGIMO7",
        "manufacturerName": "Nissan",
        "colour": "Pink",
        "model": "Rogue",
        "identifier": "RGIMO7",
        "owner": "Charles King",
        "location": {
            "latitude": 51.487737,
            "longitude": -0.122072
        }
    },
    {
        "unit": 61,
        "comment": "A car digital twin labelled Car-Hyundai-Palisade-Y76PVY",
        "label": "Car-Hyundai-Palisade-Y76PVY",
        "manufacturerName": "Hyundai",
        "colour": "White",
        "model": "Palisade",
        "identifier": "Y76PVY",
        "owner": "Samantha Carter",
        "location": {
            "latitude": 51.509725,
            "longitude": -0.143192
        }
    },
    {
        "unit": 22,
        "comment": "A car digital twin labelled Car-Subaru-Ascent-GNR3IC",
        "label": "Car-Subaru-Ascent-GNR3IC",
        "manufacturerName": "Subaru",
        "colour": "White",
        "model": "Ascent",
        "identifier": "GNR3IC",
        "owner": "Kevin Turner",
        "location": {
            "latitude": 51.607504,
            "longitude": -0.126854
        }
    },
    {
        "unit": 53,
        "comment": "A car digital twin labelled Car-Alfa Romeo-4C-MH442I",
        "label": "Car-Alfa Romeo-4C-MH442I",
        "manufacturerName": "Alfa Romeo",
        "colour": "Black",
        "model": "4C",
        "identifier": "MH442I",
        "owner": "Jane Doe",
        "location": {
            "latitude": 51.45855,
            "longitude": -0.408661
        }
    },
    {
        "unit": 29,
        "comment": "A car digital twin labelled Car-Hyundai-Tucson-4HMVTN",
        "label": "Car-Hyundai-Tucson-4HMVTN",
        "manufacturerName": "Hyundai",
        "colour": "Black",
        "model": "Tucson",
        "identifier": "4HMVTN",
        "owner": "Adam Ward",
        "location": {
            "latitude": 51.473623,
            "longitude": -0.125829
        }
    },
    {
        "unit": 85,
        "comment": "A car digital twin labelled Car-Fiat-Doblo-YFS71E",
        "label": "Car-Fiat-Doblo-YFS71E",
        "manufacturerName": "Fiat",
        "colour": "Blue",
        "model": "Doblo",
        "identifier": "YFS71E",
        "owner": "Emily Hernandez",
        "location": {
            "latitude": 51.684771,
            "longitude": -0.173537
        }
    },
    {
        "unit": 12,
        "comment": "A car digital twin labelled Car-Toyota-Prius-URFM5M",
        "label": "Car-Toyota-Prius-URFM5M",
        "manufacturerName": "Toyota",
        "colour": "Pink",
        "model": "Prius",
        "identifier": "URFM5M",
        "owner": "Alice Johnson",
        "location": {
            "latitude": 51.50338,
            "longitude": -0.134434
        }
    },
    {
        "unit": 46,
        "comment": "A car digital twin labelled Car-Mercedes-Benz-GLE-AVHJG2",
        "label": "Car-Mercedes-Benz-GLE-AVHJG2",
        "manufacturerName": "Mercedes-Benz",
        "colour": "White",
        "model": "GLE",
        "identifier": "AVHJG2",
        "owner": "Thomas Young",
        "location": {
            "latitude": 51.510979,
            "longitude": -0.341971
        }
    },
    {
        "unit": 65,
        "comment": "A car digital twin labelled Car-Subaru-Outback-G9RTZ8",
        "label": "Car-Subaru-Outback-G9RTZ8",
        "manufacturerName": "Subaru",
        "colour": "Black",
        "model": "Outback",
        "identifier": "G9RTZ8",
        "owner": "Robert Garcia",
        "location": {
            "latitude": 51.517491,
            "longitude": 0.03649
        }
    },
    {
        "unit": 62,
        "comment": "A car digital twin labelled Car-Fiat-Doblo-ZT7CHM",
        "label": "Car-Fiat-Doblo-ZT7CHM",
        "manufacturerName": "Fiat",
        "colour": "Green",
        "model": "Doblo",
        "identifier": "ZT7CHM",
        "owner": "Laura Allen",
        "location": {
            "latitude": 51.627912,
            "longitude": -0.014298
        }
    },
    {
        "unit": 22,
        "comment": "A car digital twin labelled Car-BMW-3 Series-2B70I1",
        "label": "Car-BMW-3 Series-2B70I1",
        "manufacturerName": "BMW",
        "colour": "Green",
        "model": "3 Series",
        "identifier": "2B70I1",
        "owner": "Brandon Howard",
        "location": {
            "latitude": 51.48729,
            "longitude": 0.222768
        }
    },
    {
        "unit": 32,
        "comment": "A car digital twin labelled Car-Ford-Fiesta-AVCH5S",
        "label": "Car-Ford-Fiesta-AVCH5S",
        "manufacturerName": "Ford",
        "colour": "Pink",
        "model": "Fiesta",
        "identifier": "AVCH5S",
        "owner": "Kevin Turner",
        "location": {
            "latitude": 51.583653,
            "longitude": -0.388375
        }
    },
    {
        "unit": 66,
        "comment": "A car digital twin labelled Car-Toyota-RAV4-T1A9MT",
        "label": "Car-Toyota-RAV4-T1A9MT",
        "manufacturerName": "Toyota",
        "colour": "Blue",
        "model": "RAV4",
        "identifier": "T1A9MT",
        "owner": "Sarah Lewis",
        "location": {
            "latitude": 51.318658,
            "longitude": -0.271962
        }
    },
    {
        "unit": 30,
        "comment": "A car digital twin labelled Car-Chevrolet-Malibu-WFNQLK",
        "label": "Car-Chevrolet-Malibu-WFNQLK",
        "manufacturerName": "Chevrolet",
        "colour": "Red",
        "model": "Malibu",
        "identifier": "WFNQLK",
        "owner": "Paul Clark",
        "location": {
            "latitude": 51.715556,
            "longitude": -0.037268
        }
    },
    {
        "unit": 28,
        "comment": "A car digital twin labelled Car-Mercedes-Benz-GLC-394G4M",
        "label": "Car-Mercedes-Benz-GLC-394G4M",
        "manufacturerName": "Mercedes-Benz",
        "colour": "Black",
        "model": "GLC",
        "identifier": "394G4M",
        "owner": "Alice Johnson",
        "location": {
            "latitude": 51.471823,
            "longitude": 0.031661
        }
    },
    {
        "unit": 35,
        "comment": "A car digital twin labelled Car-Kia-Soul-KMXABH",
        "label": "Car-Kia-Soul-KMXABH",
        "manufacturerName": "Kia",
        "colour": "White",
        "model": "Soul",
        "identifier": "KMXABH",
        "owner": "Gary Phillips",
        "location": {
            "latitude": 51.491313,
            "longitude": -0.121051
        }
    },
    {
        "unit": 69,
        "comment": "A car digital twin labelled Car-Mercedes-Benz-GLE-GNMKEF",
        "label": "Car-Mercedes-Benz-GLE-GNMKEF",
        "manufacturerName": "Mercedes-Benz",
        "colour": "White",
        "model": "GLE",
        "identifier": "GNMKEF",
        "owner": "Laura Peterson",
        "location": {
            "latitude": 51.488663,
            "longitude": -0.12476
        }
    },
    {
        "unit": 45,
        "comment": "A car digital twin labelled Car-Alfa Romeo-Giulia-6QMUGI",
        "label": "Car-Alfa Romeo-Giulia-6QMUGI",
        "manufacturerName": "Alfa Romeo",
        "colour": "Red",
        "model": "Giulia",
        "identifier": "6QMUGI",
        "owner": "Robert Garcia",
        "location": {
            "latitude": 51.610592,
            "longitude": 0.037222
        }
    },
    {
        "unit": 82,
        "comment": "A car digital twin labelled Car-Audi-A3-SQNCLD",
        "label": "Car-Audi-A3-SQNCLD",
        "manufacturerName": "Audi",
        "colour": "White",
        "model": "A3",
        "identifier": "SQNCLD",
        "owner": "Lisa Campbell",
        "location": {
            "latitude": 51.410661,
            "longitude": 0.033039
        }
    },
    {
        "unit": 51,
        "comment": "A car digital twin labelled Car-Mercedes-Benz-E-Class-T9GZVF",
        "label": "Car-Mercedes-Benz-E-Class-T9GZVF",
        "manufacturerName": "Mercedes-Benz",
        "colour": "Brown",
        "model": "E-Class",
        "identifier": "T9GZVF",
        "owner": "Paul Clark",
        "location": {
            "latitude": 51.404123,
            "longitude": -0.189694
        }
    },
    {
        "unit": 73,
        "comment": "A car digital twin labelled Car-Ford-F-150-505WKX",
        "label": "Car-Ford-F-150-505WKX",
        "manufacturerName": "Ford",
        "colour": "Red",
        "model": "F-150",
        "identifier": "505WKX",
        "owner": "Laura Peterson",
        "location": {
            "latitude": 51.576572,
            "longitude": 0.012633
        }
    },
    {
        "unit": 17,
        "comment": "A car digital twin labelled Car-Hyundai-Elantra-UXJTHE",
        "label": "Car-Hyundai-Elantra-UXJTHE",
        "manufacturerName": "Hyundai",
        "colour": "Black",
        "model": "Elantra",
        "identifier": "UXJTHE",
        "owner": "John Smith",
        "location": {
            "latitude": 51.534108,
            "longitude": 0.168852
        }
    },
    {
        "unit": 18,
        "comment": "A car digital twin labelled Car-Chevrolet-Tahoe-5KD8QU",
        "label": "Car-Chevrolet-Tahoe-5KD8QU",
        "manufacturerName": "Chevrolet",
        "colour": "Brown",
        "model": "Tahoe",
        "identifier": "5KD8QU",
        "owner": "Susan Miller",
        "location": {
            "latitude": 51.538731,
            "longitude": -0.074353
        }
    },
    {
        "unit": 71,
        "comment": "A car digital twin labelled Car-Alfa Romeo-GTV-SPMEHO",
        "label": "Car-Alfa Romeo-GTV-SPMEHO",
        "manufacturerName": "Alfa Romeo",
        "colour": "Brown",
        "model": "GTV",
        "identifier": "SPMEHO",
        "owner": "Brian Edwards",
        "location": {
            "latitude": 51.542949,
            "longitude": -0.103867
        }
    },
    {
        "unit": 94,
        "comment": "A car digital twin labelled Car-Toyota-Corolla-JOB3E9",
        "label": "Car-Toyota-Corolla-JOB3E9",
        "manufacturerName": "Toyota",
        "colour": "Pink",
        "model": "Corolla",
        "identifier": "JOB3E9",
        "owner": "Sarah Lewis",
        "location": {
            "latitude": 51.560172,
            "longitude": 0.029178
        }
    },
    {
        "unit": 41,
        "comment": "A car digital twin labelled Car-Toyota-Corolla-Q5MO0T",
        "label": "Car-Toyota-Corolla-Q5MO0T",
        "manufacturerName": "Toyota",
        "colour": "Green",
        "model": "Corolla",
        "identifier": "Q5MO0T",
        "owner": "Sarah Lewis",
        "location": {
            "latitude": 51.615994,
            "longitude": 0.078428
        }
    },
    {
        "unit": 52,
        "comment": "A car digital twin labelled Car-Kia-Sorento-QRZJKX",
        "label": "Car-Kia-Sorento-QRZJKX",
        "manufacturerName": "Kia",
        "colour": "Blue",
        "model": "Sorento",
        "identifier": "QRZJKX",
        "owner": "Matthew Lopez",
        "location": {
            "latitude": 51.517146,
            "longitude": -0.216322
        }
    },
    {
        "unit": 92,
        "comment": "A car digital twin labelled Car-Hyundai-Kona-9XWAJ9",
        "label": "Car-Hyundai-Kona-9XWAJ9",
        "manufacturerName": "Hyundai",
        "colour": "Blue",
        "model": "Kona",
        "identifier": "9XWAJ9",
        "owner": "Alice Johnson",
        "location": {
            "latitude": 51.347817,
            "longitude": 0.041896
        }
    },
    {
        "unit": 97,
        "comment": "A car digital twin labelled Car-Honda-Odyssey-YFYKG2",
        "label": "Car-Honda-Odyssey-YFYKG2",
        "manufacturerName": "Honda",
        "colour": "Blue",
        "model": "Odyssey",
        "identifier": "YFYKG2",
        "owner": "Patricia Brown",
        "location": {
            "latitude": 51.511795,
            "longitude": -0.108451
        }
    },
    {
        "unit": 66,
        "comment": "A car digital twin labelled Car-Chevrolet-Suburban-CAW828",
        "label": "Car-Chevrolet-Suburban-CAW828",
        "manufacturerName": "Chevrolet",
        "colour": "Red",
        "model": "Suburban",
        "identifier": "CAW828",
        "owner": "Daniel Taylor",
        "location": {
            "latitude": 51.36841,
            "longitude": -0.158431
        }
    },
    {
        "unit": 35,
        "comment": "A car digital twin labelled Car-Subaru-Crosstrek-JEUF1Y",
        "label": "Car-Subaru-Crosstrek-JEUF1Y",
        "manufacturerName": "Subaru",
        "colour": "Red",
        "model": "Crosstrek",
        "identifier": "JEUF1Y",
        "owner": "Samantha Carter",
        "location": {
            "latitude": 51.513437,
            "longitude": -0.180453
        }
    },
    {
        "unit": 30,
        "comment": "A car digital twin labelled Car-Volkswagen-Passat-KGDFB9",
        "label": "Car-Volkswagen-Passat-KGDFB9",
        "manufacturerName": "Volkswagen",
        "colour": "White",
        "model": "Passat",
        "identifier": "KGDFB9",
        "owner": "Brandon Howard",
        "location": {
            "latitude": 51.404578,
            "longitude": -0.053525
        }
    },
    {
        "unit": 59,
        "comment": "A car digital twin labelled Car-Toyota-RAV4-WGFDMZ",
        "label": "Car-Toyota-RAV4-WGFDMZ",
        "manufacturerName": "Toyota",
        "colour": "Pink",
        "model": "RAV4",
        "identifier": "WGFDMZ",
        "owner": "Jessica Wright",
        "location": {
            "latitude": 51.410383,
            "longitude": 0.028043
        }
    },
    {
        "unit": 36,
        "comment": "A car digital twin labelled Car-Honda-Pilot-IN9QPU",
        "label": "Car-Honda-Pilot-IN9QPU",
        "manufacturerName": "Honda",
        "colour": "Blue",
        "model": "Pilot",
        "identifier": "IN9QPU",
        "owner": "Jason Roberts",
        "location": {
            "latitude": 51.459483,
            "longitude": -0.009158
        }
    },
    {
        "unit": 69,
        "comment": "A car digital twin labelled Car-Honda-Accord-YJM649",
        "label": "Car-Honda-Accord-YJM649",
        "manufacturerName": "Honda",
        "colour": "Green",
        "model": "Accord",
        "identifier": "YJM649",
        "owner": "Lisa Campbell",
        "location": {
            "latitude": 51.532758,
            "longitude": 0.209868
        }
    },
    {
        "unit": 84,
        "comment": "A car digital twin labelled Car-Chevrolet-Impala-6M4EC3",
        "label": "Car-Chevrolet-Impala-6M4EC3",
        "manufacturerName": "Chevrolet",
        "colour": "Black",
        "model": "Impala",
        "identifier": "6M4EC3",
        "owner": "Thomas Young",
        "location": {
            "latitude": 51.405392,
            "longitude": -0.183853
        }
    },
    {
        "unit": 46,
        "comment": "A car digital twin labelled Car-Ford-Escape-N4VS6E",
        "label": "Car-Ford-Escape-N4VS6E",
        "manufacturerName": "Ford",
        "colour": "Green",
        "model": "Escape",
        "identifier": "N4VS6E",
        "owner": "Mark Hall",
        "location": {
            "latitude": 51.601896,
            "longitude": -0.027915
        }
    },
    {
        "unit": 39,
        "comment": "A car digital twin labelled Car-Nissan-Maxima-LK11AG",
        "label": "Car-Nissan-Maxima-LK11AG",
        "manufacturerName": "Nissan",
        "colour": "Blue",
        "model": "Maxima",
        "identifier": "LK11AG",
        "owner": "Emily Hernandez",
        "location": {
            "latitude": 51.605179,
            "longitude": -0.295192
        }
    },
    {
        "unit": 11,
        "comment": "A car digital twin labelled Car-Audi-Q5-AU4WL7",
        "label": "Car-Audi-Q5-AU4WL7",
        "manufacturerName": "Audi",
        "colour": "Brown",
        "model": "Q5",
        "identifier": "AU4WL7",
        "owner": "Deborah Parker",
        "location": {
            "latitude": 51.522889,
            "longitude": -0.442512
        }
    },
    {
        "unit": 10,
        "comment": "A car digital twin labelled Car-Subaru-Ascent-7LUABF",
        "label": "Car-Subaru-Ascent-7LUABF",
        "manufacturerName": "Subaru",
        "colour": "Black",
        "model": "Ascent",
        "identifier": "7LUABF",
        "owner": "Angela Green",
        "location": {
            "latitude": 51.489089,
            "longitude": -0.30558
        }
    },
    {
        "unit": 46,
        "comment": "A car digital twin labelled Car-Alfa Romeo-4C-ZZSRE8",
        "label": "Car-Alfa Romeo-4C-ZZSRE8",
        "manufacturerName": "Alfa Romeo",
        "colour": "Green",
        "model": "4C",
        "identifier": "ZZSRE8",
        "owner": "Emma Torres",
        "location": {
            "latitude": 51.696224,
            "longitude": -0.240759
        }
    },
    {
        "unit": 36,
        "comment": "A car digital twin labelled Car-Fiat-500-HGSQVL",
        "label": "Car-Fiat-500-HGSQVL",
        "manufacturerName": "Fiat",
        "colour": "Pink",
        "model": "500",
        "identifier": "HGSQVL",
        "owner": "Susan Miller",
        "location": {
            "latitude": 51.388014,
            "longitude": 0.136314
        }
    },
    {
        "unit": 74,
        "comment": "A car digital twin labelled Car-Chevrolet-Suburban-PKY1PD",
        "label": "Car-Chevrolet-Suburban-PKY1PD",
        "manufacturerName": "Chevrolet",
        "colour": "Green",
        "model": "Suburban",
        "identifier": "PKY1PD",
        "owner": "Andrew Adams",
        "location": {
            "latitude": 51.309833,
            "longitude": -0.158079
        }
    },
    {
        "unit": 65,
        "comment": "A car digital twin labelled Car-Nissan-Murano-LWKPZP",
        "label": "Car-Nissan-Murano-LWKPZP",
        "manufacturerName": "Nissan",
        "colour": "Red",
        "model": "Murano",
        "identifier": "LWKPZP",
        "owner": "Susan Miller",
        "location": {
            "latitude": 51.498041,
            "longitude": -0.037468
        }
    },
    {
        "unit": 30,
        "comment": "A car digital twin labelled Car-Chevrolet-Silverado-APZRAS",
        "label": "Car-Chevrolet-Silverado-APZRAS",
        "manufacturerName": "Chevrolet",
        "colour": "Grey",
        "model": "Silverado",
        "identifier": "APZRAS",
        "owner": "Laura Peterson",
        "location": {
            "latitude": 51.571145,
            "longitude": -0.320421
        }
    },
    {
        "unit": 69,
        "comment": "A car digital twin labelled Car-BMW-7 Series-JQJATM",
        "label": "Car-BMW-7 Series-JQJATM",
        "manufacturerName": "BMW",
        "colour": "Black",
        "model": "7 Series",
        "identifier": "JQJATM",
        "owner": "Jason Roberts",
        "location": {
            "latitude": 51.462526,
            "longitude": 0.067868
        }
    },
    {
        "unit": 27,
        "comment": "A car digital twin labelled Car-Nissan-Maxima-2PI7M7",
        "label": "Car-Nissan-Maxima-2PI7M7",
        "manufacturerName": "Nissan",
        "colour": "Brown",
        "model": "Maxima",
        "identifier": "2PI7M7",
        "owner": "Justin Foster",
        "location": {
            "latitude": 51.35052,
            "longitude": -0.266271
        }
    },
    {
        "unit": 82,
        "comment": "A car digital twin labelled Car-Ford-Fiesta-RTOJKT",
        "label": "Car-Ford-Fiesta-RTOJKT",
        "manufacturerName": "Ford",
        "colour": "Green",
        "model": "Fiesta",
        "identifier": "RTOJKT",
        "owner": "Deborah Parker",
        "location": {
            "latitude": 51.455557,
            "longitude": -0.095909
        }
    },
    {
        "unit": 67,
        "comment": "A car digital twin labelled Car-Nissan-Murano-UNSBTM",
        "label": "Car-Nissan-Murano-UNSBTM",
        "manufacturerName": "Nissan",
        "colour": "Grey",
        "model": "Murano",
        "identifier": "UNSBTM",
        "owner": "Ryan Cooper",
        "location": {
            "latitude": 51.502129,
            "longitude": -0.139137
        }
    },
    {
        "unit": 56,
        "comment": "A car digital twin labelled Car-Fiat-Punto-6155OS",
        "label": "Car-Fiat-Punto-6155OS",
        "manufacturerName": "Fiat",
        "colour": "Pink",
        "model": "Punto",
        "identifier": "6155OS",
        "owner": "Daniel Taylor",
        "location": {
            "latitude": 51.581836,
            "longitude": -0.155451
        }
    },
    {
        "unit": 94,
        "comment": "A car digital twin labelled Car-Kia-Telluride-919DO0",
        "label": "Car-Kia-Telluride-919DO0",
        "manufacturerName": "Kia",
        "colour": "White",
        "model": "Telluride",
        "identifier": "919DO0",
        "owner": "Robert Garcia",
        "location": {
            "latitude": 51.41835,
            "longitude": 0.151898
        }
    },
    {
        "unit": 57,
        "comment": "A car digital twin labelled Car-Kia-Soul-IFV472",
        "label": "Car-Kia-Soul-IFV472",
        "manufacturerName": "Kia",
        "colour": "Grey",
        "model": "Soul",
        "identifier": "IFV472",
        "owner": "Jason Roberts",
        "location": {
            "latitude": 51.61887,
            "longitude": -0.056665
        }
    },
    {
        "unit": 86,
        "comment": "A car digital twin labelled Car-Ford-Mustang-6N7UUL",
        "label": "Car-Ford-Mustang-6N7UUL",
        "manufacturerName": "Ford",
        "colour": "Pink",
        "model": "Mustang",
        "identifier": "6N7UUL",
        "owner": "Deborah Parker",
        "location": {
            "latitude": 51.660123,
            "longitude": -0.051456
        }
    },
    {
        "unit": 65,
        "comment": "A car digital twin labelled Car-Alfa Romeo-4C-A9RTEC",
        "label": "Car-Alfa Romeo-4C-A9RTEC",
        "manufacturerName": "Alfa Romeo",
        "colour": "Brown",
        "model": "4C",
        "identifier": "A9RTEC",
        "owner": "Charles King",
        "location": {
            "latitude": 51.667412,
            "longitude": -0.282815
        }
    },
    {
        "unit": 23,
        "comment": "A car digital twin labelled Car-Nissan-Altima-2KNCQ8",
        "label": "Car-Nissan-Altima-2KNCQ8",
        "manufacturerName": "Nissan",
        "colour": "White",
        "model": "Altima",
        "identifier": "2KNCQ8",
        "owner": "Paul Clark",
        "location": {
            "latitude": 51.517246,
            "longitude": -0.057557
        }
    },
    {
        "unit": 49,
        "comment": "A car digital twin labelled Car-Fiat-124 Spider-QD9IJJ",
        "label": "Car-Fiat-124 Spider-QD9IJJ",
        "manufacturerName": "Fiat",
        "colour": "Pink",
        "model": "124 Spider",
        "identifier": "QD9IJJ",
        "owner": "James Rodriguez",
        "location": {
            "latitude": 51.496068,
            "longitude": -0.211854
        }
    },
    {
        "unit": 76,
        "comment": "A car digital twin labelled Car-Kia-Sorento-0VD6UY",
        "label": "Car-Kia-Sorento-0VD6UY",
        "manufacturerName": "Kia",
        "colour": "White",
        "model": "Sorento",
        "identifier": "0VD6UY",
        "owner": "Emily Hernandez",
        "location": {
            "latitude": 51.430732,
            "longitude": -0.35296
        }
    },
    {
        "unit": 23,
        "comment": "A car digital twin labelled Car-Alfa Romeo-MiTo-MP22T6",
        "label": "Car-Alfa Romeo-MiTo-MP22T6",
        "manufacturerName": "Alfa Romeo",
        "colour": "Grey",
        "model": "MiTo",
        "identifier": "MP22T6",
        "owner": "Susan Miller",
        "location": {
            "latitude": 51.651916,
            "longitude": -0.215334
        }
    },
    {
        "unit": 72,
        "comment": "A car digital twin labelled Car-Nissan-Altima-FA8YLL",
        "label": "Car-Nissan-Altima-FA8YLL",
        "manufacturerName": "Nissan",
        "colour": "Blue",
        "model": "Altima",
        "identifier": "FA8YLL",
        "owner": "Samantha Carter",
        "location": {
            "latitude": 51.340911,
            "longitude": 0.059282
        }
    },
    {
        "unit": 87,
        "comment": "A car digital twin labelled Car-Ford-Mustang-8VZBJA",
        "label": "Car-Ford-Mustang-8VZBJA",
        "manufacturerName": "Ford",
        "colour": "Red",
        "model": "Mustang",
        "identifier": "8VZBJA",
        "owner": "Gary Phillips",
        "location": {
            "latitude": 51.438555,
            "longitude": -0.068298
        }
    },
    {
        "unit": 89,
        "comment": "A car digital twin labelled Car-Alfa Romeo-GTV-LJVRGG",
        "label": "Car-Alfa Romeo-GTV-LJVRGG",
        "manufacturerName": "Alfa Romeo",
        "colour": "Pink",
        "model": "GTV",
        "identifier": "LJVRGG",
        "owner": "Rebecca Mitchell",
        "location": {
            "latitude": 51.595356,
            "longitude": 0.073884
        }
    },
    {
        "unit": 75,
        "comment": "A car digital twin labelled Car-Kia-Soul-5F8XSJ",
        "label": "Car-Kia-Soul-5F8XSJ",
        "manufacturerName": "Kia",
        "colour": "Red",
        "model": "Soul",
        "identifier": "5F8XSJ",
        "owner": "Emily Hernandez",
        "location": {
            "latitude": 51.503478,
            "longitude": -0.423035
        }
    },
    {
        "unit": 27,
        "comment": "A car digital twin labelled Car-Honda-Pilot-WJ3UOR",
        "label": "Car-Honda-Pilot-WJ3UOR",
        "manufacturerName": "Honda",
        "colour": "Brown",
        "model": "Pilot",
        "identifier": "WJ3UOR",
        "owner": "Mark Hall",
        "location": {
            "latitude": 51.481023,
            "longitude": -0.476098
        }
    },
    {
        "unit": 34,
        "comment": "A car digital twin labelled Car-Volkswagen-Jetta-SZ0POC",
        "label": "Car-Volkswagen-Jetta-SZ0POC",
        "manufacturerName": "Volkswagen",
        "colour": "Green",
        "model": "Jetta",
        "identifier": "SZ0POC",
        "owner": "Melissa Baker",
        "location": {
            "latitude": 51.370742,
            "longitude": -0.068458
        }
    },
    {
        "unit": 74,
        "comment": "A car digital twin labelled Car-BMW-X5-7T0LNM",
        "label": "Car-BMW-X5-7T0LNM",
        "manufacturerName": "BMW",
        "colour": "Red",
        "model": "X5",
        "identifier": "7T0LNM",
        "owner": "Karen Walker",
        "location": {
            "latitude": 51.669013,
            "longitude": -0.082922
        }
    },
    {
        "unit": 15,
        "comment": "A car digital twin labelled Car-Audi-Q5-FQA9UX",
        "label": "Car-Audi-Q5-FQA9UX",
        "manufacturerName": "Audi",
        "colour": "Grey",
        "model": "Q5",
        "identifier": "FQA9UX",
        "owner": "Chris Evans",
        "location": {
            "latitude": 51.347217,
            "longitude": 0.051502
        }
    },
    {
        "unit": 47,
        "comment": "A car digital twin labelled Car-BMW-5 Series-PQPU0G",
        "label": "Car-BMW-5 Series-PQPU0G",
        "manufacturerName": "BMW",
        "colour": "Green",
        "model": "5 Series",
        "identifier": "PQPU0G",
        "owner": "Chris Evans",
        "location": {
            "latitude": 51.669651,
            "longitude": -0.039272
        }
    },
    {
        "unit": 99,
        "comment": "A car digital twin labelled Car-Kia-Sportage-N6A4WP",
        "label": "Car-Kia-Sportage-N6A4WP",
        "manufacturerName": "Kia",
        "colour": "White",
        "model": "Sportage",
        "identifier": "N6A4WP",
        "owner": "Laura Peterson",
        "location": {
            "latitude": 51.376335,
            "longitude": 0.001787
        }
    },
    {
        "unit": 60,
        "comment": "A car digital twin labelled Car-Chevrolet-Tahoe-U0KA2S",
        "label": "Car-Chevrolet-Tahoe-U0KA2S",
        "manufacturerName": "Chevrolet",
        "colour": "Blue",
        "model": "Tahoe",
        "identifier": "U0KA2S",
        "owner": "Linda Davis",
        "location": {
            "latitude": 51.415357,
            "longitude": -0.139709
        }
    },
    {
        "unit": 61,
        "comment": "A car digital twin labelled Car-Volkswagen-Jetta-NYO4MP",
        "label": "Car-Volkswagen-Jetta-NYO4MP",
        "manufacturerName": "Volkswagen",
        "colour": "Grey",
        "model": "Jetta",
        "identifier": "NYO4MP",
        "owner": "Ashley Reed",
        "location": {
            "latitude": 51.492073,
            "longitude": -0.217425
        }
    },
    {
        "unit": 77,
        "comment": "A car digital twin labelled Car-Alfa Romeo-Stelvio-9PZ3X0",
        "label": "Car-Alfa Romeo-Stelvio-9PZ3X0",
        "manufacturerName": "Alfa Romeo",
        "colour": "Grey",
        "model": "Stelvio",
        "identifier": "9PZ3X0",
        "owner": "Joshua Nelson",
        "location": {
            "latitude": 51.491859,
            "longitude": -0.243542
        }
    },
    {
        "unit": 58,
        "comment": "A car digital twin labelled Car-Toyota-Corolla-H8INBA",
        "label": "Car-Toyota-Corolla-H8INBA",
        "manufacturerName": "Toyota",
        "colour": "White",
        "model": "Corolla",
        "identifier": "H8INBA",
        "owner": "Steven Hill",
        "location": {
            "latitude": 51.492445,
            "longitude": -0.082491
        }
    },
    {
        "unit": 13,
        "comment": "A car digital twin labelled Car-Chevrolet-Malibu-GT73UK",
        "label": "Car-Chevrolet-Malibu-GT73UK",
        "manufacturerName": "Chevrolet",
        "colour": "Grey",
        "model": "Malibu",
        "identifier": "GT73UK",
        "owner": "Rebecca Mitchell",
        "location": {
            "latitude": 51.557926,
            "longitude": -0.113462
        }
    },
    {
        "unit": 45,
        "comment": "A car digital twin labelled Car-Mercedes-Benz-E-Class-ODLJNP",
        "label": "Car-Mercedes-Benz-E-Class-ODLJNP",
        "manufacturerName": "Mercedes-Benz",
        "colour": "Red",
        "model": "E-Class",
        "identifier": "ODLJNP",
        "owner": "Chris Evans",
        "location": {
            "latitude": 51.471387,
            "longitude": -0.213508
        }
    },
    {
        "unit": 54,
        "comment": "A car digital twin labelled Car-Mercedes-Benz-GLE-KJVXRC",
        "label": "Car-Mercedes-Benz-GLE-KJVXRC",
        "manufacturerName": "Mercedes-Benz",
        "colour": "Pink",
        "model": "GLE",
        "identifier": "KJVXRC",
        "owner": "Gary Phillips",
        "location": {
            "latitude": 51.568799,
            "longitude": -0.275456
        }
    },
    {
        "unit": 29,
        "comment": "A car digital twin labelled Car-Kia-Telluride-MR4K39",
        "label": "Car-Kia-Telluride-MR4K39",
        "manufacturerName": "Kia",
        "colour": "Brown",
        "model": "Telluride",
        "identifier": "MR4K39",
        "owner": "Matthew Lopez",
        "location": {
            "latitude": 51.495616,
            "longitude": -0.004913
        }
    },
    {
        "unit": 66,
        "comment": "A car digital twin labelled Car-Ford-F-150-6F95V1",
        "label": "Car-Ford-F-150-6F95V1",
        "manufacturerName": "Ford",
        "colour": "Black",
        "model": "F-150",
        "identifier": "6F95V1",
        "owner": "Michelle Perez",
        "location": {
            "latitude": 51.553886,
            "longitude": 0.010186
        }
    },
    {
        "unit": 58,
        "comment": "A car digital twin labelled Car-Toyota-Camry-THLQO2",
        "label": "Car-Toyota-Camry-THLQO2",
        "manufacturerName": "Toyota",
        "colour": "Red",
        "model": "Camry",
        "identifier": "THLQO2",
        "owner": "Emma Torres",
        "location": {
            "latitude": 51.453874,
            "longitude": -0.436264
        }
    },
    {
        "unit": 86,
        "comment": "A car digital twin labelled Car-Ford-Mustang-54GHRT",
        "label": "Car-Ford-Mustang-54GHRT",
        "manufacturerName": "Ford",
        "colour": "Brown",
        "model": "Mustang",
        "identifier": "54GHRT",
        "owner": "Emily Powell",
        "location": {
            "latitude": 51.426581,
            "longitude": -0.163501
        }
    },
    {
        "unit": 77,
        "comment": "A car digital twin labelled Car-Audi-Q7-VSXRAO",
        "label": "Car-Audi-Q7-VSXRAO",
        "manufacturerName": "Audi",
        "colour": "White",
        "model": "Q7",
        "identifier": "VSXRAO",
        "owner": "Daniel Taylor",
        "location": {
            "latitude": 51.497744,
            "longitude": -0.126275
        }
    },
    {
        "unit": 84,
        "comment": "A car digital twin labelled Car-Fiat-124 Spider-1GBRCK",
        "label": "Car-Fiat-124 Spider-1GBRCK",
        "manufacturerName": "Fiat",
        "colour": "Brown",
        "model": "124 Spider",
        "identifier": "1GBRCK",
        "owner": "Eric Morris",
        "location": {
            "latitude": 51.457147,
            "longitude": -0.397439
        }
    },
    {
        "unit": 13,
        "comment": "A car digital twin labelled Car-Nissan-Sentra-2LANMF",
        "label": "Car-Nissan-Sentra-2LANMF",
        "manufacturerName": "Nissan",
        "colour": "Red",
        "model": "Sentra",
        "identifier": "2LANMF",
        "owner": "Linda Davis",
        "location": {
            "latitude": 51.553119,
            "longitude": -0.125458
        }
    },
    {
        "unit": 64,
        "comment": "A car digital twin labelled Car-Volkswagen-Golf-UKF02A",
        "label": "Car-Volkswagen-Golf-UKF02A",
        "manufacturerName": "Volkswagen",
        "colour": "Pink",
        "model": "Golf",
        "identifier": "UKF02A",
        "owner": "Brandon Howard",
        "location": {
            "latitude": 51.500175,
            "longitude": 0.008231
        }
    },
    {
        "unit": 24,
        "comment": "A car digital twin labelled Car-Subaru-Forester-EY13S4",
        "label": "Car-Subaru-Forester-EY13S4",
        "manufacturerName": "Subaru",
        "colour": "Grey",
        "model": "Forester",
        "identifier": "EY13S4",
        "owner": "Jane Doe",
        "location": {
            "latitude": 51.373511,
            "longitude": -0.212866
        }
    },
    {
        "unit": 92,
        "comment": "A car digital twin labelled Car-Audi-Q7-MA2DC9",
        "label": "Car-Audi-Q7-MA2DC9",
        "manufacturerName": "Audi",
        "colour": "Brown",
        "model": "Q7",
        "identifier": "MA2DC9",
        "owner": "Ryan Cooper",
        "location": {
            "latitude": 51.663978,
            "longitude": -0.059521
        }
    },
    {
        "unit": 71,
        "comment": "A car digital twin labelled Car-Subaru-Ascent-HLH768",
        "label": "Car-Subaru-Ascent-HLH768",
        "manufacturerName": "Subaru",
        "colour": "Blue",
        "model": "Ascent",
        "identifier": "HLH768",
        "owner": "Susan Miller",
        "location": {
            "latitude": 51.702632,
            "longitude": 0.012568
        }
    },
    {
        "unit": 95,
        "comment": "A car digital twin labelled Car-Volkswagen-Passat-3ACRX0",
        "label": "Car-Volkswagen-Passat-3ACRX0",
        "manufacturerName": "Volkswagen",
        "colour": "Pink",
        "model": "Passat",
        "identifier": "3ACRX0",
        "owner": "Kevin Turner",
        "location": {
            "latitude": 51.456923,
            "longitude": -0.342987
        }
    },
    {
        "unit": 69,
        "comment": "A car digital twin labelled Car-Mercedes-Benz-GLC-US2C1Q",
        "label": "Car-Mercedes-Benz-GLC-US2C1Q",
        "manufacturerName": "Mercedes-Benz",
        "colour": "Brown",
        "model": "GLC",
        "identifier": "US2C1Q",
        "owner": "Deborah Parker",
        "location": {
            "latitude": 51.567032,
            "longitude": -0.089042
        }
    },
    {
        "unit": 42,
        "comment": "A car digital twin labelled Car-Nissan-Rogue-VR1OMN",
        "label": "Car-Nissan-Rogue-VR1OMN",
        "manufacturerName": "Nissan",
        "colour": "Blue",
        "model": "Rogue",
        "identifier": "VR1OMN",
        "owner": "David Martinez",
        "location": {
            "latitude": 51.663302,
            "longitude": -0.060956
        }
    },
    {
        "unit": 75,
        "comment": "A car digital twin labelled Car-Volkswagen-Jetta-LKH6HD",
        "label": "Car-Volkswagen-Jetta-LKH6HD",
        "manufacturerName": "Volkswagen",
        "colour": "Brown",
        "model": "Jetta",
        "identifier": "LKH6HD",
        "owner": "Deborah Parker",
        "location": {
            "latitude": 51.431795,
            "longitude": 0.094838
        }
    },
    {
        "unit": 55,
        "comment": "A car digital twin labelled Car-Chevrolet-Malibu-4135JP",
        "label": "Car-Chevrolet-Malibu-4135JP",
        "manufacturerName": "Chevrolet",
        "colour": "Red",
        "model": "Malibu",
        "identifier": "4135JP",
        "owner": "John Smith",
        "location": {
            "latitude": 51.384284,
            "longitude": 0.00443
        }
    }
]